City,Country,Latitude,Longitude,Max_temp_F,Humidity_Percent,Cloudy_Percent,Wind_Speed_mph,Date
Jamestown,United States,42.1,-79.24,36.0,86,1,9.17,2020-12-10 23:43:38
Kapaa,United States,22.08,-159.32,82.4,69,1,6.93,2020-12-10 23:44:19
Fortuna,United States,40.6,-124.16,52.0,81,40,1.99,2020-12-10 23:45:35
Castro,Brazil,-24.79,-50.01,61.61,92,20,5.12,2020-12-10 23:42:38
San,Mali,13.3,-4.9,75.13,20,0,10.74,2020-12-10 23:44:11
Raahe,Finland,64.68,24.48,27.0,86,90,5.82,2020-12-10 23:45:35
Nemuro,Japan,43.32,145.57,37.78,75,11,5.03,2020-12-10 23:43:13
Kabanjahe,Indonesia,3.1,98.49,77.0,94,40,3.36,2020-12-10 23:45:36
Nome,United States,64.5,-165.41,-0.4,70,1,8.05,2020-12-10 23:45:36
Butaritari,Kiribati,3.07,172.79,82.08,75,95,7.67,2020-12-10 23:45:37
Leningradskiy,Russia,69.38,178.42,0.84,87,0,9.06,2020-12-10 23:45:37
Rikitea,French Polynesia,-23.12,-134.97,77.25,81,40,13.89,2020-12-10 23:45:37
Chauk,Myanmar,20.88,94.82,65.3,81,6,3.89,2020-12-10 23:45:37
Khatanga,Russia,71.97,102.5,-32.78,84,95,7.67,2020-12-10 23:45:38
Kumul,China,42.8,93.45,16.68,88,48,1.79,2020-12-10 23:45:39
Samarai,Papua New Guinea,-10.62,150.67,83.41,70,92,5.32,2020-12-10 23:45:39
Bethel,United States,41.37,-73.41,39.0,69,1,4.7,2020-12-10 23:41:02
Hambantota,Sri Lanka,6.12,81.12,75.25,80,89,12.33,2020-12-10 23:45:39
Mataura,New Zealand,-46.19,168.86,53.01,73,98,11.99,2020-12-10 23:45:39
Cayenne,French Guiana,4.93,-52.33,77.0,100,90,2.24,2020-12-10 23:42:05
Waiouru,New Zealand,-39.48,175.67,62.19,50,27,13.13,2020-12-10 23:45:40
Kaitangata,New Zealand,-46.28,169.85,51.01,68,100,14.0,2020-12-10 23:45:41
Hermanus,South Africa,-34.42,19.23,63.0,88,70,5.57,2020-12-10 23:45:41
Hithadhoo,Maldives,-0.6,73.08,81.59,77,1,13.47,2020-12-10 23:44:02
Cabo,Brazil,-8.28,-35.03,78.8,69,20,8.05,2020-12-10 23:45:41
Sitka,United States,57.05,-135.33,46.4,42,20,12.75,2020-12-10 23:45:42
Coquimbo,Chile,-29.95,-71.34,60.8,67,0,9.17,2020-12-10 23:43:16
Mossamedes,Angola,-15.2,12.15,65.64,76,51,6.24,2020-12-10 23:45:43
Tual,Indonesia,-5.67,132.75,84.18,70,18,5.01,2020-12-10 23:45:43
Barrow,United States,71.29,-156.79,-5.8,76,90,9.17,2020-12-10 23:45:43
Saskylakh,Russia,71.92,114.08,-17.81,86,100,12.26,2020-12-10 23:45:43
Las,Poland,49.74,19.43,30.0,2,73,10.0,2020-12-10 23:45:44
Roald,Norway,62.58,6.13,44.6,61,87,12.75,2020-12-10 23:45:44
Yangi Marg`ilon,Uzbekistan,40.43,71.72,32.0,85,98,6.93,2020-12-10 23:45:45
Tuatapere,New Zealand,-46.13,167.68,53.01,73,85,11.99,2020-12-10 23:45:45
Bluff,New Zealand,-46.6,168.33,53.01,73,73,11.99,2020-12-10 23:45:45
Airai,Timor-Leste,-8.93,125.41,72.84,74,86,0.65,2020-12-10 23:45:45
Kawalu,Indonesia,-7.38,108.21,77.05,83,90,0.16,2020-12-10 23:45:46
Carnarvon,Australia,-24.87,113.63,75.2,100,68,14.99,2020-12-10 23:45:46
Safaga,Egypt,26.73,33.94,59.0,62,0,4.81,2020-12-10 23:43:07
Eyl,Somalia,7.98,49.82,72.73,56,7,14.7,2020-12-10 23:45:46
Tasiilaq,Greenland,65.61,-37.64,23.0,45,47,8.05,2020-12-10 23:45:46
Bathsheba,Barbados,13.22,-59.52,78.8,74,20,12.75,2020-12-10 23:45:46
Yellowknife,Canada,62.46,-114.35,-0.4,84,75,9.17,2020-12-10 23:45:47
Weiser,United States,44.25,-116.97,44.6,48,1,4.7,2020-12-10 23:45:47
Yar-Sale,Russia,66.83,70.83,-1.41,92,96,14.03,2020-12-10 23:45:47
Mukhen,Russia,48.1,136.1,15.96,94,100,5.95,2020-12-10 23:45:47
Hilo,United States,19.73,-155.09,84.2,58,40,16.11,2020-12-10 23:44:00
Punta,Philippines,8.99,125.34,81.41,76,36,4.63,2020-12-10 23:45:48
Vaini,Tonga,-21.2,-175.2,84.2,74,40,13.87,2020-12-10 23:45:48
El Puerto de Santa María,Spain,36.59,-6.23,64.4,88,75,16.11,2020-12-10 23:41:19
Lebu,Chile,-37.62,-73.65,55.99,86,0,7.92,2020-12-10 23:45:49
Quelimane,Mozambique,-17.88,36.89,75.2,88,20,2.3,2020-12-10 23:45:49
Batticaloa,Sri Lanka,7.71,81.69,76.64,79,22,7.96,2020-12-10 23:45:49
Qaanaaq,Greenland,77.48,-69.36,13.55,92,100,5.12,2020-12-10 23:45:49
Arraial,Brazil,-22.84,-46.65,75.2,64,0,13.87,2020-12-10 23:45:50
Kuytun,Russia,54.34,101.5,-2.0,89,97,5.86,2020-12-10 23:45:50
Norman,United States,35.22,-97.44,71.6,21,1,10.29,2020-12-10 23:45:50
Aklavik,Canada,68.22,-135.01,-5.8,76,90,3.36,2020-12-10 23:45:51
Stromness,United Kingdom,58.97,-3.3,46.4,81,99,32.21,2020-12-10 23:45:51
Ushuaia,Argentina,-54.8,-68.3,59.0,51,75,23.04,2020-12-10 23:44:27
Eenhana,Namibia,-17.47,16.33,71.1,24,15,5.03,2020-12-10 23:45:51
Colombo,Sri Lanka,6.93,79.85,73.4,94,0,4.7,2020-12-10 23:45:51
Alakurtti,Russia,66.97,30.35,28.99,94,96,2.89,2020-12-10 23:45:52
Saint Paul Harbor,United States,57.79,-152.41,26.6,73,75,3.36,2020-12-10 23:45:52
Adré,Chad,13.47,22.2,68.68,22,100,12.88,2020-12-10 23:45:52
Ponta,Portugal,38.73,-28.27,60.55,97,77,23.29,2020-12-10 23:45:52
Busselton,Australia,-33.65,115.33,77.0,61,50,4.0,2020-12-10 23:45:52
Nikolskoye,Russia,59.7,30.79,18.0,78,0,11.18,2020-12-10 23:45:53
Hobart,Australia,-42.88,147.33,64.0,47,75,12.75,2020-12-10 23:45:43
Cervo,Spain,43.67,-7.41,60.01,96,100,21.99,2020-12-10 23:45:53
Zapolyarnyy,Russia,69.42,30.81,30.2,92,75,11.41,2020-12-10 23:45:54
New,Liberia,6.65,-10.59,78.8,94,75,0.63,2020-12-10 23:42:23
Presidente,Brazil,-29.95,-50.11,70.92,83,2,16.37,2020-12-10 23:45:54
Longyearbyen,Svalbard and Jan Mayen Islands,78.22,15.64,15.8,66,75,6.93,2020-12-10 23:45:28
Bereda,Spain,43.27,-7.54,59.0,100,100,11.99,2020-12-10 23:45:54
Kouroussa,Guinea,10.65,-9.88,74.28,29,0,1.61,2020-12-10 23:45:55
Muskogee,United States,35.58,-95.33,68.0,28,1,11.41,2020-12-10 23:45:55
Saint-François,France,46.42,3.91,44.01,93,90,8.05,2020-12-10 23:45:56
Okha,Russia,53.57,142.95,12.78,96,100,7.61,2020-12-10 23:45:56
Hong Kong,Hong Kong,22.29,114.16,70.0,85,45,5.21,2020-12-10 23:43:42
Klamath,United States,42.67,-121.75,44.6,36,75,12.75,2020-12-10 23:45:56
Sepuka,Tanzania,-4.75,34.53,64.65,85,84,1.72,2020-12-10 23:45:57
Albany,United States,42.6,-73.97,37.99,72,2,5.39,2020-12-10 23:44:35
Shimoda,Japan,34.67,138.95,55.4,82,75,10.29,2020-12-10 23:45:57
College,United States,64.86,-147.8,3.2,84,75,1.12,2020-12-10 23:45:57
Katsuura,Japan,35.13,140.3,51.01,81,75,6.93,2020-12-10 23:45:58
Arlit,Niger,18.74,7.39,73.87,21,0,5.44,2020-12-10 23:45:58
Thompson,Canada,55.74,-97.86,1.4,84,20,3.36,2020-12-10 23:45:58
Shakawe,Botswana,-18.37,21.85,72.39,72,49,5.3,2020-12-10 23:45:58
Klaksvík,Faeroe Islands,62.23,-6.59,46.4,87,100,25.28,2020-12-10 23:45:59
Faanui,French Polynesia,-16.48,-151.75,80.38,73,100,14.05,2020-12-10 23:45:59
Grafton,United States,42.21,-71.69,36.0,64,1,5.82,2020-12-10 23:45:59
Chenzhou,China,25.8,113.03,49.95,79,89,1.41,2020-12-10 23:46:00
Dalvik,Iceland,65.97,-18.53,39.2,86,90,6.93,2020-12-10 23:46:00
Kahului,United States,20.89,-156.47,87.8,48,40,13.87,2020-12-10 23:44:00
El Puerto de Santa María,Spain,36.59,-6.23,64.4,88,75,16.11,2020-12-10 23:41:19
Sao,India,20.51,76.21,67.73,53,47,12.15,2020-12-10 23:46:00
Hushitai,China,41.93,123.51,17.6,61,0,2.24,2020-12-10 23:46:01
Cape,Chile,-36.41,-71.9,64.4,48,75,12.75,2020-12-10 23:46:01
Pacific,United States,38.48,-90.74,54.0,66,25,4.97,2020-12-10 23:46:01
Matiari,Pakistan,25.6,68.45,51.8,93,27,16.53,2020-12-10 23:46:01
George Town,Malaysia,5.41,100.34,80.6,94,20,3.36,2020-12-10 23:46:02
Cherskiy,Russia,68.75,161.3,-0.26,80,97,3.91,2020-12-10 23:46:02
Narsaq,Greenland,60.92,-46.05,17.6,37,0,4.7,2020-12-10 23:46:02
Esperance,Australia,-33.87,121.9,64.4,77,90,12.75,2020-12-10 23:46:02
Tanout,Niger,14.97,8.89,73.53,21,67,10.36,2020-12-10 23:46:03
Constitución,Chile,-35.33,-72.42,57.4,74,1,11.43,2020-12-10 23:46:03
Mys,Russia,62.06,48.62,16.57,90,10,5.99,2020-12-10 23:46:04
Mayo,United States,38.89,-76.51,42.8,93,1,1.77,2020-12-10 23:46:04
Saldanha,South Africa,-33.01,17.94,59.0,77,98,1.12,2020-12-10 23:46:04
Danané,Cote d'Ivoire,7.26,-8.15,71.06,96,82,0.63,2020-12-10 23:46:05
Necochea,Argentina,-38.55,-58.74,64.94,84,97,23.67,2020-12-10 23:41:31
Bredasdorp,South Africa,-34.53,20.04,64.4,82,92,1.12,2020-12-10 23:46:05
Vestmanna,Faeroe Islands,62.16,-7.17,46.4,87,100,25.28,2020-12-10 23:46:06
Biu,Nigeria,10.61,12.19,70.81,25,4,4.85,2020-12-10 23:46:06
Sioux,United States,42.73,-96.23,44.01,65,1,12.75,2020-12-10 23:46:06
Praia,Cabo Verde,14.92,-23.51,73.4,64,75,16.11,2020-12-10 23:46:06
Nanortalik,Greenland,60.14,-45.24,25.9,84,1,5.91,2020-12-10 23:46:06
Husavik,Iceland,66.04,-17.34,39.2,88,90,6.93,2020-12-10 23:46:07
Wakkanai,Japan,45.41,141.67,36.64,78,83,19.24,2020-12-10 23:44:21
Lata,Portugal,40.16,-8.33,59.0,97,100,8.99,2020-12-10 23:46:07
Līsakovsk,Kazakhstan,52.54,62.49,4.41,94,12,1.14,2020-12-10 23:46:07
Upernavik,Greenland,72.79,-56.15,24.48,92,100,6.08,2020-12-10 23:46:08
Doka,Sudan,13.52,35.77,70.7,67,28,14.94,2020-12-10 23:46:08
Chokurdakh,Russia,70.63,147.92,-31.92,85,79,7.16,2020-12-10 23:46:08
Mayumba,Gabon,-3.43,10.66,77.94,87,100,6.22,2020-12-10 23:46:08
Sambava,Madagascar,-14.27,50.17,75.52,87,77,5.17,2020-12-10 23:46:08
Winnemucca,United States,40.97,-117.74,44.6,33,1,4.7,2020-12-10 23:42:11
Oddur,Somalia,4.12,43.89,69.48,78,35,13.82,2020-12-10 23:46:09
Olafsvik,Iceland,64.89,-23.71,38.79,88,96,18.48,2020-12-10 23:46:09
Camaná,Peru,-16.62,-72.71,66.76,76,27,7.49,2020-12-10 23:46:09
Bengkulu,Indonesia,-3.8,102.27,76.33,82,95,6.96,2020-12-10 23:46:10
Jerez,Guatemala,14.1,-89.75,80.6,47,0,4.32,2020-12-10 23:46:10
Aykhal,Russia,66.0,111.5,-40.0,65,0,6.71,2020-12-10 23:46:10
Port,DR Congo,-7.03,29.76,71.74,75,88,10.51,2020-12-10 23:46:10
Cockburn,Australia,-32.08,141.0,69.8,28,69,18.34,2020-12-10 23:46:10
Rawson,Argentina,-43.3,-65.1,65.01,46,98,6.08,2020-12-10 23:46:10
Port,DR Congo,-7.03,29.76,71.74,75,88,10.51,2020-12-10 23:44:00
Krasnosel'kup,Russia,65.7,82.47,-19.79,88,61,4.83,2020-12-10 23:46:11
Bireun,Indonesia,5.2,96.7,76.51,84,99,2.48,2020-12-10 23:46:11
Ulaangom,Mongolia,49.98,92.07,-0.22,83,95,5.26,2020-12-10 23:46:11
Liverpool,United Kingdom,53.41,-2.98,46.4,93,90,13.87,2020-12-10 23:43:50
Ürümqi,China,43.8,87.6,10.4,78,41,6.71,2020-12-10 23:46:11
Salalah,Oman,17.02,54.09,75.2,23,0,16.11,2020-12-10 23:46:12
Dikson,Russia,73.51,80.55,-9.38,89,100,20.94,2020-12-10 23:46:12
Cidreira,Brazil,-30.18,-50.21,70.97,82,0,17.47,2020-12-10 23:46:12
Laguna,United States,38.42,-121.42,66.2,17,1,3.36,2020-12-10 23:43:30
Ilulissat,Greenland,69.22,-51.1,19.4,41,90,17.22,2020-12-10 23:46:13
Comodoro,Brazil,-13.66,-59.79,68.76,98,74,4.56,2020-12-10 23:46:13
Ribeira,Spain,42.75,-8.44,61.0,93,75,9.17,2020-12-10 23:46:13
Atar,Mauritania,20.52,-13.05,63.95,25,87,10.0,2020-12-10 23:46:13
Kutum,Sudan,14.2,24.67,59.34,32,57,7.11,2020-12-10 23:46:13
Takoradze,Ghana,4.88,-1.76,78.87,85,2,8.46,2020-12-10 23:46:14
Vagay,Russia,57.94,69.02,13.17,96,74,6.4,2020-12-10 23:46:14
Lake,United States,42.33,-88.0,48.0,66,26,6.15,2020-12-10 23:46:14
Tuktoyaktuk,Canada,69.45,-133.04,-13.0,75,75,9.17,2020-12-10 23:46:14
Kavieng,Papua New Guinea,-2.57,150.8,82.22,73,99,2.73,2020-12-10 23:46:14
Suntar,Russia,62.14,117.63,-30.08,84,88,2.13,2020-12-10 23:46:14
Tataouine,Tunisia,32.93,10.45,53.6,32,100,17.22,2020-12-10 23:46:14
Goderich,Canada,43.75,-81.72,39.2,80,63,8.05,2020-12-10 23:46:15
Caibarién,Cuba,22.52,-79.47,64.4,72,20,5.82,2020-12-10 23:46:15
Xinzhou,China,38.41,112.73,21.38,80,0,2.15,2020-12-10 23:46:15
Sao,India,20.51,76.21,67.73,53,47,12.15,2020-12-10 23:46:15
Herat Province,Afghanistan,34.5,62.0,34.59,83,84,5.75,2020-12-10 23:46:15
Madingou,Congo Republic,-4.15,13.55,73.35,93,94,1.32,2020-12-10 23:46:16
Vanimo,Papua New Guinea,-2.67,141.3,82.67,74,96,4.36,2020-12-10 23:46:16
Westport,United States,41.14,-73.36,44.6,56,1,4.7,2020-12-10 23:46:16
Shiyan,China,32.65,110.78,41.09,70,46,3.24,2020-12-10 23:46:16
Jumla,Nepal,29.27,82.18,38.07,54,0,5.3,2020-12-10 23:46:16
Kaeo,New Zealand,-35.1,173.78,70.0,67,91,5.99,2020-12-10 23:46:16
Nueva,Ecuador,-1.72,-79.83,80.6,69,40,10.29,2020-12-10 23:46:17
Ilhabela,Brazil,-23.78,-45.36,73.33,87,91,7.87,2020-12-10 23:46:17
Hofn,Iceland,64.25,-15.21,43.72,94,100,16.6,2020-12-10 23:46:17
Khryashchevka,Russia,53.81,49.09,1.4,84,0,6.71,2020-12-10 23:46:17
Lábrea,Brazil,-7.26,-64.8,73.96,97,98,4.23,2020-12-10 23:46:17
Alofi,Niue,-19.06,-169.92,82.4,74,75,20.8,2020-12-10 23:46:18
Baghdad,Iraq,33.34,44.4,50.0,76,0,4.7,2020-12-10 23:46:18
Port,DR Congo,-7.03,29.76,71.74,75,88,10.51,2020-12-10 23:44:00
Homer,United States,59.64,-151.55,30.99,92,20,4.7,2020-12-10 23:46:18
Murwillumbah,Australia,-28.32,153.4,77.0,73,90,9.17,2020-12-10 23:46:18
Cabra,Spain,37.47,-4.44,57.99,70,100,3.0,2020-12-10 23:46:03
Mananjary,Madagascar,-21.22,48.33,73.98,88,97,4.23,2020-12-10 23:46:19
Plettenberg,Germany,51.22,7.88,32.0,87,97,5.99,2020-12-10 23:46:19
Upington,South Africa,-28.45,21.26,71.6,33,0,6.93,2020-12-10 23:46:19
Avarua,Cook Islands,-21.21,-159.78,84.2,74,13,18.34,2020-12-10 23:46:19
Kanel,Senegal,15.49,-13.18,78.8,34,0,4.7,2020-12-10 23:46:20
San,Mali,13.3,-4.9,75.13,20,0,10.74,2020-12-10 23:44:11
Hasaki,Japan,35.73,140.83,44.6,100,40,4.7,2020-12-10 23:46:20
Laas,Italy,46.62,10.7,36.0,79,5,3.36,2020-12-10 23:46:20
Brae,United Kingdom,60.4,-1.35,48.2,76,100,31.09,2020-12-10 23:46:20
Tessalit,Mali,20.2,1.01,63.5,21,32,9.35,2020-12-10 23:46:21
Shangrao,China,28.45,117.97,49.62,81,64,3.06,2020-12-10 23:46:21
Chui,Uruguay,-33.7,-53.46,69.62,73,0,10.33,2020-12-10 23:46:21
Saint-Philippe,Reunion,-21.36,55.77,73.4,73,0,21.92,2020-12-10 23:46:21
Muisne,Ecuador,0.6,-80.03,80.6,83,75,5.82,2020-12-10 23:46:21
Belgrade,Serbia,44.8,20.47,37.4,100,90,6.93,2020-12-10 23:46:22
Woodward,United States,36.43,-99.39,53.6,57,75,6.93,2020-12-10 23:46:22
Patnāgarh,India,20.72,83.15,60.67,61,0,1.12,2020-12-10 23:46:22
Koumac,New Caledonia,-20.57,164.28,84.29,64,97,7.94,2020-12-10 23:46:22
Portsoy,United Kingdom,57.68,-2.69,46.0,81,75,20.8,2020-12-10 23:46:22
Clyde,United States,41.3,-82.98,44.01,77,0,10.04,2020-12-10 23:46:22
Bambous,Mauritius,-20.26,57.41,75.2,69,75,11.41,2020-12-10 23:46:23
Mtwara,Tanzania,-10.27,40.18,80.15,83,97,9.69,2020-12-10 23:46:23
Tommot,Russia,58.96,126.29,-24.81,83,100,1.92,2020-12-10 23:46:23
Luwuk,Indonesia,-0.95,122.79,83.59,66,90,0.98,2020-12-10 23:46:23
Provideniya,Russia,64.38,-173.3,14.0,66,0,15.66,2020-12-10 23:46:23
Grand,United States,38.88,-109.5,35.6,31,90,5.82,2020-12-10 23:46:24
Honningsvåg,Norway,70.98,25.97,38.88,83,99,16.13,2020-12-10 23:46:24
Marawi,Philippines,8.0,124.29,75.49,81,73,1.57,2020-12-10 23:46:24
Malanje,Angola,-9.54,16.34,60.84,98,84,3.31,2020-12-10 23:46:24
Verkhovazh'ye,Russia,60.75,42.05,17.02,93,0,7.45,2020-12-10 23:46:24
Qaqortoq,Greenland,60.72,-46.03,17.6,37,0,4.7,2020-12-10 23:46:25
Santa,Philippines,17.49,120.43,79.77,74,79,3.2,2020-12-10 23:46:25
Maracaju,Brazil,-21.61,-55.17,77.16,33,0,6.13,2020-12-10 23:46:25
Kāzerūn,Iran,29.62,51.65,50.05,59,0,0.76,2020-12-10 23:46:25
Atuona,French Polynesia,-9.8,-139.03,78.76,77,10,20.38,2020-12-10 23:46:26
Nyáregyháza,Hungary,47.26,19.5,37.99,93,90,1.1,2020-12-10 23:46:26
Seydi,Turkmenistan,39.48,62.91,23.99,84,18,9.48,2020-12-10 23:46:26
Bandarbeyla,Somalia,9.49,50.81,71.94,62,50,14.18,2020-12-10 23:46:26
Churapcha,Russia,62.0,132.43,-38.42,81,99,3.6,2020-12-10 23:46:27
San,Mali,13.3,-4.9,75.13,20,0,10.74,2020-12-10 23:42:26
Naze,Japan,28.37,129.48,68.0,82,75,9.17,2020-12-10 23:46:27
Severo-Kuril'sk,Russia,50.68,156.12,26.82,92,80,15.55,2020-12-10 23:46:28
Takhtamygda,Russia,54.1,123.57,-1.35,91,100,4.59,2020-12-10 23:46:28
Iqaluit,Canada,63.75,-68.51,21.2,73,40,5.82,2020-12-10 23:46:28
Banhigan,Philippines,9.86,123.39,82.56,77,71,6.08,2020-12-10 23:46:28
Tiksi,Russia,71.69,128.87,-25.85,85,99,6.64,2020-12-10 23:46:29
Whitecourt,Canada,54.15,-115.69,28.4,68,20,2.24,2020-12-10 23:46:29
Jalor,India,25.35,72.62,62.96,43,9,4.23,2020-12-10 23:46:29
Inuvik,Canada,68.35,-133.72,-2.2,77,100,5.82,2020-12-10 23:44:06
Pyapon,Myanmar,16.28,95.68,66.22,91,37,4.29,2020-12-10 23:46:30
Wau,South Sudan,7.7,28.0,73.83,64,5,3.36,2020-12-10 23:46:30
Canala,New Caledonia,-21.53,165.95,87.8,52,75,8.05,2020-12-10 23:46:30
Pochutla,Mexico,15.74,-96.47,82.4,54,5,3.06,2020-12-10 23:46:31
Florø,Norway,61.6,5.03,44.6,65,99,20.8,2020-12-10 23:46:31
Vila,Portugal,42.03,-8.16,55.99,96,100,15.01,2020-12-10 23:46:31
Jacqueville,Cote d'Ivoire,5.21,-4.41,82.4,83,40,8.05,2020-12-10 23:46:32
Whitehorse,Canada,60.72,-135.05,15.8,78,75,18.34,2020-12-10 23:46:32
Strelka,Russia,58.07,93.03,-3.51,91,96,4.18,2020-12-10 23:46:32
Kruisfontein,South Africa,-34.0,24.73,64.99,96,32,2.55,2020-12-10 23:46:32
Yambio,South Sudan,4.57,28.4,71.83,67,6,0.18,2020-12-10 23:46:32
Alyangula,Australia,-13.85,136.42,86.0,74,40,9.17,2020-12-10 23:46:33
Assiut,Egypt,27.18,31.18,55.4,71,0,4.25,2020-12-10 23:42:03
Zambezi,Zambia,-13.54,23.1,65.26,97,98,2.62,2020-12-10 23:46:33
Mabaruma,Guyana,8.2,-59.78,72.95,95,32,2.93,2020-12-10 23:46:33
St. George's,Grenada,12.06,-61.75,78.8,78,20,10.29,2020-12-10 23:46:33
Vestmannaeyjar,Iceland,63.44,-20.27,44.83,89,100,22.95,2020-12-10 23:46:33
Souillac,Mauritius,-20.52,57.52,75.2,69,75,11.41,2020-12-10 23:46:34
Volkhov,Russia,59.93,32.34,22.59,88,16,6.82,2020-12-10 23:46:34
Oak,United States,39.89,-94.53,59.0,61,1,4.7,2020-12-10 23:46:34
Baykit,Russia,61.67,96.37,-27.6,79,47,1.74,2020-12-10 23:46:34
Litovko,Russia,49.24,135.17,12.16,94,98,2.59,2020-12-10 23:46:35
Kununurra,Australia,-15.77,128.73,78.8,100,100,6.93,2020-12-10 23:46:35
Caconda,Angola,-13.73,15.07,58.98,87,98,3.74,2020-12-10 23:46:35
Beringovskiy,Russia,63.05,179.32,25.36,94,100,20.27,2020-12-10 23:46:35
George,South Africa,-33.96,22.46,60.8,93,18,4.7,2020-12-10 23:46:35
Rēzekne,Latvia,56.5,27.32,23.92,97,90,10.38,2020-12-10 23:46:35
Jalu,Libya,29.03,21.55,50.23,62,0,6.22,2020-12-10 23:46:36
Pevek,Russia,69.7,170.31,4.24,87,45,8.55,2020-12-10 23:46:36
Lompoc,United States,34.64,-120.46,57.99,71,1,6.93,2020-12-10 23:46:36
Kachug,Russia,53.96,105.88,-9.56,87,98,1.99,2020-12-10 23:46:36
Acquaviva,San Marino,43.95,12.42,45.0,87,96,3.36,2020-12-10 23:46:37
Evensk,Russia,61.95,159.23,16.74,95,100,16.46,2020-12-10 23:46:37
Port,DR Congo,-7.03,29.76,71.74,75,88,10.51,2020-12-10 23:44:00
Ostrovnoy,Russia,68.05,39.51,29.48,96,98,18.34,2020-12-10 23:46:37
Araouane,Mali,18.9,-3.53,66.94,21,37,10.13,2020-12-10 23:46:37
Sandwick,United Kingdom,60.0,-1.25,48.2,76,100,31.09,2020-12-10 23:46:37
Bud,United States,39.45,-86.18,51.8,57,1,5.82,2020-12-10 23:46:38
Stavrovo,Russia,56.13,40.01,18.86,91,0,7.7,2020-12-10 23:46:38
Sarab,Iran,38.61,44.99,35.15,85,88,0.43,2020-12-10 23:46:38
Amuntai,Indonesia,-2.42,115.25,81.19,77,93,1.88,2020-12-10 23:46:38
Agüimes,Spain,27.91,-15.45,66.2,68,75,17.22,2020-12-10 23:46:39
Sultepec,Mexico,18.87,-99.95,62.6,45,75,12.75,2020-12-10 23:46:39
Wiarton,Canada,44.74,-81.13,37.4,86,90,11.41,2020-12-10 23:46:40
Brunsbüttel,Germany,53.9,9.15,36.0,92,100,8.57,2020-12-10 23:46:40
Faya,Saudi Arabia,18.39,42.45,53.6,87,0,2.17,2020-12-10 23:46:41
Gambēla,Ethiopia,8.25,34.58,79.12,51,1,3.29,2020-12-10 23:46:41
Saint-Augustin,Canada,51.23,-58.65,32.31,98,99,10.4,2020-12-10 23:46:41
Selikhino,Russia,50.37,137.5,13.06,94,100,1.81,2020-12-10 23:46:42
Zilair,Russia,52.23,57.44,10.09,90,0,3.98,2020-12-10 23:46:42
Mahébourg,Mauritius,-20.41,57.7,75.2,69,75,11.41,2020-12-10 23:46:16
Sao,India,20.51,76.21,67.73,53,47,12.15,2020-12-10 23:46:15
Ayan,Russia,56.45,138.17,5.86,84,78,10.22,2020-12-10 23:46:43
Biak,Indonesia,-0.91,122.88,81.91,72,92,1.07,2020-12-10 23:46:43
Beloha,Madagascar,-25.17,45.05,73.94,78,36,6.06,2020-12-10 23:46:44
Kyaukse,Myanmar,21.6,96.13,59.0,87,3,2.44,2020-12-10 23:46:44
Daru,Papua New Guinea,-9.08,143.21,83.93,72,65,5.75,2020-12-10 23:46:44
Solnechnyy,Russia,50.72,136.63,7.86,92,100,1.97,2020-12-10 23:46:45
Teruel,Spain,40.67,-0.67,48.2,81,0,3.36,2020-12-10 23:46:45
Botwood,Canada,49.15,-55.35,33.01,94,100,4.74,2020-12-10 23:46:45
Xichang,China,27.9,102.26,50.0,64,98,0.85,2020-12-10 23:46:46
Areia,Brazil,-6.96,-35.69,73.4,83,20,16.11,2020-12-10 23:46:46
Brigantine,United States,39.41,-74.36,43.0,69,1,7.09,2020-12-10 23:46:46
Kualakapuas,Indonesia,-3.01,114.39,77.0,94,40,3.36,2020-12-10 23:46:47
Poum,New Caledonia,-20.23,164.02,81.68,77,97,11.97,2020-12-10 23:46:47
Huarmey,Peru,-10.07,-78.15,68.34,81,88,7.38,2020-12-10 23:46:47
Tsumeb,Namibia,-19.23,17.72,75.11,17,0,8.32,2020-12-10 23:46:47
Taoudenni,Mali,22.68,-3.98,61.5,28,87,12.59,2020-12-10 23:46:48
Kodīnar,India,20.79,70.7,72.77,86,93,5.95,2020-12-10 23:46:48
Alta,Norway,69.97,23.27,30.2,80,90,13.87,2020-12-10 23:46:49
Gouré,Niger,13.98,10.27,74.3,20,0,9.26,2020-12-10 23:46:49
Calabar,Nigeria,4.95,8.32,75.78,91,52,2.13,2020-12-10 23:46:49
Tukums,Latvia,56.97,23.16,24.8,79,75,6.93,2020-12-10 23:46:49
Kiryat Gat,Israel,31.61,34.76,57.99,71,25,4.43,2020-12-10 23:46:50
Portland,United States,45.52,-122.68,42.01,91,100,1.99,2020-12-10 23:43:59
Chertkovo,Russia,49.38,40.15,18.45,90,0,12.66,2020-12-10 23:46:50
Acapulco de Juárez,Mexico,16.86,-99.89,82.4,74,20,11.41,2020-12-10 23:43:54
Mount,United Kingdom,53.66,-1.85,42.01,97,100,3.0,2020-12-10 23:42:07
Erenhot,China,43.65,111.98,8.42,93,99,3.51,2020-12-10 23:46:51
Karasjok,Norway,69.47,25.51,30.2,86,80,4.7,2020-12-10 23:46:51
Mombetsu,Japan,44.35,143.35,30.0,79,77,3.0,2020-12-10 23:46:52
Ust-Tsilma,Russia,65.44,52.15,19.26,94,62,6.78,2020-12-10 23:46:52
Ayamé,Cote d'Ivoire,5.61,-3.16,74.55,95,64,3.42,2020-12-10 23:46:52
Cuamba,Mozambique,-14.8,36.54,72.45,82,99,1.21,2020-12-10 23:46:53
Nacala,Mozambique,-14.54,40.67,78.58,87,97,6.24,2020-12-10 23:46:53
Zima,Russia,53.92,102.04,-1.77,89,98,5.99,2020-12-10 23:45:21
Talnakh,Russia,69.49,88.4,-25.6,67,0,2.24,2020-12-10 23:46:53
Dongsheng,China,39.82,109.98,13.44,90,0,11.77,2020-12-10 23:46:53
Okhotsk,Russia,59.38,143.3,-13.18,83,0,15.23,2020-12-10 23:46:54
Nandigāma,India,16.78,80.3,65.89,88,23,1.25,2020-12-10 23:46:54
Patnanungan,Philippines,14.78,122.18,81.19,85,99,10.04,2020-12-10 23:46:55
Ludvika,Sweden,60.15,15.19,32.0,97,100,5.82,2020-12-10 23:46:55
Auki,Solomon Islands,-8.77,160.7,83.53,77,87,4.63,2020-12-10 23:46:55
Chagoda,Russia,59.16,35.33,17.69,93,49,7.25,2020-12-10 23:46:55
Srednekolymsk,Russia,67.45,153.68,-16.8,88,100,3.94,2020-12-10 23:46:55
Dingle,Philippines,11.0,122.67,80.56,86,35,5.14,2020-12-10 23:46:56
Morondava,Madagascar,-20.28,44.28,78.33,83,26,7.74,2020-12-10 23:46:56
Tsabong,Botswana,-26.02,22.4,77.88,23,49,8.37,2020-12-10 23:46:56
Bethanien,Namibia,-26.5,17.16,59.5,57,2,4.47,2020-12-10 23:46:57
Myitkyina,Myanmar,25.38,97.4,56.39,86,1,2.24,2020-12-10 23:46:57
Uglovoye,Ukraine,44.82,33.6,51.06,67,100,10.29,2020-12-10 23:46:57
Norsup,Vanuatu,-16.07,167.38,84.2,79,75,3.36,2020-12-10 23:46:57
Usvyaty,Russia,55.75,30.75,24.35,94,90,9.19,2020-12-10 23:46:57
Vila,Portugal,42.03,-8.16,55.99,96,100,15.01,2020-12-10 23:46:57
Oyem,Gabon,1.6,11.58,67.87,98,99,2.82,2020-12-10 23:46:58
Ixtapa,Mexico,20.7,-105.2,78.8,74,90,9.17,2020-12-10 23:46:58
Mingshui,China,36.72,117.5,37.99,80,19,1.63,2020-12-10 23:46:58
Tautira,French Polynesia,-17.73,-149.15,75.2,88,75,21.92,2020-12-10 23:46:58
Northam,United Kingdom,51.03,-4.22,52.0,98,100,8.99,2020-12-10 23:46:58
Isangel,Vanuatu,-19.55,169.27,84.2,79,75,5.82,2020-12-10 23:46:59
Gönen,Turkey,40.1,27.65,57.0,76,75,19.46,2020-12-10 23:46:59
Kinsale,Ireland,51.71,-8.53,48.2,93,40,12.75,2020-12-10 23:46:59
Sampit,Indonesia,-2.53,112.95,78.3,90,99,1.72,2020-12-10 23:46:59
El Puerto de Santa María,Spain,36.59,-6.23,64.4,88,75,16.11,2020-12-10 23:46:59
Winnetka,United States,42.11,-87.74,53.6,61,1,3.36,2020-12-10 23:46:59
Butterworth,Malaysia,5.4,100.36,80.6,94,20,3.36,2020-12-10 23:46:59
Luanda,Angola,-8.84,13.23,77.0,83,20,9.17,2020-12-10 23:43:10
Trojes,Albania,41.76,19.96,46.4,87,90,6.93,2020-12-10 23:47:00
Belyy,Russia,55.84,32.94,22.12,92,73,9.95,2020-12-10 23:47:00
Kharagauli,Georgia,42.02,43.2,46.4,71,0,33.33,2020-12-10 23:47:00
Seoul,South Korea,37.57,126.98,35.6,100,90,0.89,2020-12-10 23:46:10
Lobatse,Botswana,-25.22,25.67,69.8,73,15,2.24,2020-12-10 23:47:00
Lakatoro,Vanuatu,-16.1,167.42,84.2,79,75,3.36,2020-12-10 23:47:01
Muros,Spain,42.78,-9.06,61.0,97,100,15.99,2020-12-10 23:47:01
Kodinsk,Russia,58.69,99.18,-8.79,88,99,2.84,2020-12-10 23:47:01
Lima,Peru,-12.04,-77.03,68.0,77,40,11.41,2020-12-10 23:44:27
Myre,Norway,69.1,15.95,36.0,72,69,6.93,2020-12-10 23:47:01
Gornopravdinsk,Russia,60.05,69.9,10.99,96,93,5.44,2020-12-10 23:47:02
Coyhaique,Chile,-45.58,-72.07,53.6,58,75,11.41,2020-12-10 23:42:10
Malampaka,Tanzania,-3.13,33.53,67.28,84,64,3.6,2020-12-10 23:47:02
Songea,Tanzania,-10.68,35.65,65.23,89,98,4.43,2020-12-10 23:47:02
Khorixas,Namibia,-20.37,14.97,61.45,49,0,4.52,2020-12-10 23:47:03
Mondlo,South Africa,-27.98,30.72,64.4,94,45,5.1,2020-12-10 23:47:03
Grindavik,Iceland,63.84,-22.43,41.0,86,75,17.22,2020-12-10 23:47:03
Disna,Belarus,55.57,28.2,26.33,96,100,12.28,2020-12-10 23:47:03
Sechura,Peru,-5.56,-80.82,72.55,71,92,14.76,2020-12-10 23:47:03
Hobyo,Somalia,5.35,48.53,77.76,71,17,18.32,2020-12-10 23:47:03
Camalú,Mexico,30.85,-116.07,64.0,51,0,5.99,2020-12-10 23:47:04
Sao,India,20.51,76.21,67.73,53,47,12.15,2020-12-10 23:46:00
Lavrentiya,Russia,65.58,-171.0,6.22,88,0,9.33,2020-12-10 23:47:05
Las,Poland,49.74,19.43,30.0,2,73,10.0,2020-12-10 23:47:05
Maragogi,Brazil,-9.01,-35.22,77.09,79,15,10.51,2020-12-10 23:47:05
Serenje,Zambia,-13.23,30.24,63.34,95,100,4.07,2020-12-10 23:47:06
Oistins,Barbados,13.07,-59.53,78.8,74,20,12.75,2020-12-10 23:42:52
San,Mali,13.3,-4.9,75.13,20,0,10.74,2020-12-10 23:44:11
Lumberton,United States,34.62,-79.01,53.6,66,1,5.82,2020-12-10 23:46:04
Dubai,United Arab Emirates,25.26,55.3,68.0,56,20,4.7,2020-12-10 23:45:07
Iquique,Chile,-20.22,-70.14,68.0,64,0,13.87,2020-12-10 23:45:48
Tura,India,25.52,90.22,58.51,70,0,2.66,2020-12-10 23:47:07
Petropavlovsk-Kamchatskiy,Russia,53.05,158.65,17.6,57,0,6.71,2020-12-10 23:47:07
Lázaro,Dominican Republic,19.46,-71.33,71.01,93,100,0.94,2020-12-10 23:47:08
Wanning,China,18.8,110.4,69.01,89,100,8.52,2020-12-10 23:47:08
Cabedelo,Brazil,-6.98,-34.83,77.0,83,0,6.93,2020-12-10 23:47:08
Mar,Spain,43.4,-4.01,57.2,87,75,8.05,2020-12-10 23:47:08
Constantine,Algeria,36.37,6.61,48.2,93,75,2.24,2020-12-10 23:47:08
Rocha,Uruguay,-34.48,-54.33,75.33,58,1,11.5,2020-12-10 23:47:09
Lodja,DR Congo,-3.48,23.43,67.84,97,100,0.76,2020-12-10 23:47:09
Casay,Philippines,9.82,123.55,82.11,78,72,5.99,2020-12-10 23:47:09
Lüderitz,Namibia,-26.65,15.16,60.06,87,5,11.07,2020-12-10 23:47:09
Torbay,Canada,47.67,-52.73,35.01,93,90,5.82,2020-12-10 23:47:09
Murray,United States,40.67,-111.89,36.0,74,40,1.72,2020-12-10 23:47:10
Vao,New Caledonia,-22.67,167.48,77.74,86,34,20.54,2020-12-10 23:47:10
Hailar,China,49.2,119.7,-4.23,87,0,11.34,2020-12-10 23:47:10
Manakara,Madagascar,-22.13,48.02,73.83,89,100,6.58,2020-12-10 23:47:10
East,Iceland,65.0,-15.0,39.2,86,75,4.7,2020-12-10 23:47:10
Nynäshamn,Sweden,58.9,17.95,41.0,93,100,1.99,2020-12-10 23:47:11
Clarence,United States,42.98,-78.59,39.2,80,90,4.7,2020-12-10 23:43:09
Pangnirtung,Canada,66.15,-65.71,14.0,78,20,4.7,2020-12-10 23:47:11
Gushikawa,Japan,26.35,127.87,69.8,94,20,8.05,2020-12-10 23:47:11
Meulaboh,Indonesia,4.14,96.13,75.99,82,100,6.76,2020-12-10 23:47:12
Ocós,Guatemala,14.51,-92.19,84.2,83,40,6.93,2020-12-10 23:44:15
Mount,United Kingdom,53.66,-1.85,42.01,97,100,3.0,2020-12-10 23:47:12
Sémbé,Congo Republic,1.65,14.58,71.58,86,60,2.84,2020-12-10 23:47:12
Bhatkal,India,13.97,74.57,75.56,73,1,4.54,2020-12-10 23:47:12
Peniche,Portugal,39.36,-9.38,62.01,95,100,15.01,2020-12-10 23:47:12
Port,DR Congo,-7.03,29.76,71.74,75,88,10.51,2020-12-10 23:44:00
Sur,Oman,22.57,59.53,72.23,61,1,11.74,2020-12-10 23:47:13
Kilifi,Kenya,-3.63,39.85,78.8,88,20,2.24,2020-12-10 23:47:13
Koson,Uzbekistan,39.04,65.58,28.4,100,0,4.7,2020-12-10 23:47:13
Genoa,Italy,44.41,8.96,46.4,70,0,14.99,2020-12-10 23:47:13
Egvekinot,Russia,66.32,-179.17,2.1,92,20,6.33,2020-12-10 23:47:14
Biltine,Chad,14.53,20.92,72.1,20,89,12.53,2020-12-10 23:47:14
Knysna,South Africa,-34.04,23.05,60.8,93,17,4.7,2020-12-10 23:47:14
Noumea,New Caledonia,-22.28,166.46,87.8,52,75,8.05,2020-12-10 23:47:14
Bay,United States,43.73,-84.02,44.01,80,1,9.26,2020-12-10 23:47:15
Khromtau,Kazakhstan,50.25,58.43,7.61,97,93,6.85,2020-12-10 23:47:15
Werda,Botswana,-25.27,23.28,80.85,26,81,8.32,2020-12-10 23:47:15
Izačić,Bosnia and Herzegovina,44.88,15.78,39.0,91,92,1.01,2020-12-10 23:47:15
Béboto,Chad,8.27,16.94,72.84,25,100,1.39,2020-12-10 23:47:15
Port,DR Congo,-7.03,29.76,71.74,75,88,10.51,2020-12-10 23:47:16
Sisimiut,Greenland,66.94,-53.67,20.91,93,95,11.1,2020-12-10 23:47:16
Akureyri,Iceland,65.68,-18.09,39.2,85,90,6.93,2020-12-10 23:47:16
Bontang,Indonesia,0.13,117.5,81.07,76,82,3.4,2020-12-10 23:47:16
Sabzawār,Iran,36.21,57.68,36.59,77,76,5.37,2020-12-10 23:47:17
Iranshahr,Iran,27.2,60.68,53.46,43,1,2.46,2020-12-10 23:47:17
Banes,Cuba,20.96,-75.72,73.4,73,75,9.17,2020-12-10 23:47:17
Ancud,Chile,-41.87,-73.82,53.6,71,75,12.75,2020-12-10 23:47:17
Buraidah,Saudi Arabia,26.33,43.98,51.8,93,0,7.4,2020-12-10 23:47:17
Kabansk,Russia,52.05,106.65,-14.8,83,98,2.24,2020-12-10 23:47:17
Fallon,United States,39.47,-118.78,46.4,39,1,5.82,2020-12-10 23:47:17
Khipro,Pakistan,25.83,69.38,63.95,55,19,11.12,2020-12-10 23:47:18
Ahipara,New Zealand,-35.17,173.17,67.03,66,100,8.84,2020-12-10 23:43:31
Novopokrovka,Ukraine,49.84,36.55,19.4,79,0,15.66,2020-12-10 23:47:18
Fairview,United States,40.81,-74.0,46.4,52,1,8.05,2020-12-10 23:47:12
Yibin,China,28.77,104.62,48.78,81,100,2.73,2020-12-10 23:47:18
Bānda,India,25.48,80.33,62.24,56,0,1.16,2020-12-10 23:47:18
Saint-Pierre,Reunion,-21.34,55.48,73.4,73,0,21.92,2020-12-10 23:47:19
Omaruru,Namibia,-21.43,15.93,56.98,45,1,3.24,2020-12-10 23:47:19
Byron,United States,44.03,-92.65,42.8,60,1,10.29,2020-12-10 23:47:19
Narrabri,Australia,-30.32,149.78,75.2,47,90,11.41,2020-12-10 23:47:19
Luangwa,Zambia,-15.62,30.42,75.88,78,100,0.74,2020-12-10 23:47:19
Puqi,China,29.72,113.88,44.42,76,0,0.98,2020-12-10 23:47:19
Magistral'nyy,Russia,56.17,107.45,-15.45,86,100,3.29,2020-12-10 23:47:20
Acaraú,Brazil,-2.89,-40.12,78.82,80,62,14.05,2020-12-10 23:47:20
Aitape,Papua New Guinea,-3.14,142.35,80.33,80,98,5.88,2020-12-10 23:47:20
Aras,Spain,42.56,-2.36,50.0,81,40,2.84,2020-12-10 23:47:20
Kurchum,Kazakhstan,48.57,83.65,8.01,94,100,4.36,2020-12-10 23:47:21
Willmar,United States,45.12,-95.04,37.4,74,1,8.05,2020-12-10 23:45:15
Port-Gentil,Gabon,-0.72,8.78,80.6,88,40,9.17,2020-12-10 23:47:21
Orneta,Poland,54.11,20.13,31.82,98,100,10.36,2020-12-10 23:47:21
Kendari,Indonesia,-3.94,122.5,82.89,78,91,2.01,2020-12-10 23:46:29
Minyar,Russia,55.07,57.55,12.36,89,0,1.7,2020-12-10 23:47:21
Bull,Liberia,6.2,-10.28,78.8,94,75,4.09,2020-12-10 23:47:22
Pisco,Peru,-13.7,-76.22,68.0,82,0,19.46,2020-12-10 23:47:22
Vila,Portugal,42.03,-8.16,55.99,96,100,15.01,2020-12-10 23:47:22
Tyristrand,Norway,60.08,10.1,36.0,82,99,3.0,2020-12-10 23:47:22
Matagami,Canada,49.75,-77.63,28.4,100,90,8.05,2020-12-10 23:47:22
Kapit,Malaysia,2.02,112.93,76.69,92,93,0.94,2020-12-10 23:47:23
Makat,Kazakhstan,47.65,53.35,18.01,93,0,6.31,2020-12-10 23:47:23
Megion,Russia,61.03,76.11,10.4,78,75,4.47,2020-12-10 23:47:23
Tchibanga,Gabon,-2.85,11.03,72.41,98,100,2.68,2020-12-10 23:47:23
Maniwaki,Canada,46.38,-75.97,30.2,86,92,3.36,2020-12-10 23:47:23
Warman,Canada,52.32,-106.57,19.99,85,75,8.05,2020-12-10 23:47:14
Namatanai,Papua New Guinea,-3.67,152.43,81.66,77,98,6.38,2020-12-10 23:47:24
Fairbanks,United States,64.84,-147.72,3.2,77,75,1.23,2020-12-10 23:47:24
Lewistown,United States,40.6,-77.57,37.4,90,1,1.23,2020-12-10 23:47:24
Enshi,China,30.3,109.48,45.9,79,91,0.6,2020-12-10 23:47:24
Semarang,Indonesia,-6.99,110.42,77.0,100,75,2.24,2020-12-10 23:47:24
Les,Spain,42.81,0.71,43.0,96,99,5.97,2020-12-10 23:47:25
Uray,Russia,60.12,64.78,16.77,90,3,8.95,2020-12-10 23:47:25
Yerbogachën,Russia,61.28,108.01,-21.62,86,98,1.34,2020-12-10 23:47:25
Ṭikāpur,Nepal,28.5,81.13,59.0,84,0,2.8,2020-12-10 23:47:25
San,Mali,13.3,-4.9,75.13,20,0,10.74,2020-12-10 23:47:26
Turia,Romania,46.03,26.05,42.01,89,100,5.84,2020-12-10 23:47:26
Phan,Thailand,19.55,99.74,57.0,100,40,1.05,2020-12-10 23:47:26
Zavyalovo,Russia,54.51,82.45,19.4,73,100,15.66,2020-12-10 23:47:26
Khāsh,Iran,28.22,61.22,41.09,67,36,5.28,2020-12-10 23:47:26
Arauco,Chile,-37.25,-73.32,60.8,77,20,10.29,2020-12-10 23:47:27
Seymchan,Russia,62.88,152.43,-22.54,86,85,0.72,2020-12-10 23:47:27
Findlay,United States,41.04,-83.65,46.4,70,1,8.05,2020-12-10 23:43:58
Ossora,Russia,59.24,163.07,30.09,98,100,21.63,2020-12-10 23:47:27
Ngunguru,New Zealand,-35.62,174.5,70.0,67,93,5.99,2020-12-10 23:47:27
Innisfail,Australia,-17.53,146.03,79.0,59,61,5.99,2020-12-10 23:47:28
Chhor,Pakistan,25.52,69.77,65.37,46,0,4.34,2020-12-10 23:47:28
Hirtshals,Denmark,57.59,9.96,37.99,92,99,3.0,2020-12-10 23:47:28
Hirānagar,India,32.45,75.27,59.04,50,9,3.0,2020-12-10 23:47:28
Zhigansk,Russia,66.77,123.37,-30.14,84,100,7.94,2020-12-10 23:47:28
Yemtsa,Russia,63.07,40.33,15.08,96,0,7.0,2020-12-10 23:47:28
Bambanglipuro,Indonesia,-7.95,110.28,80.15,81,92,1.63,2020-12-10 23:47:29
Barra de Tecoanapa,Mexico,16.52,-98.75,81.1,77,70,10.31,2020-12-10 23:47:29
Lagan,Russia,45.39,47.37,30.69,95,0,14.25,2020-12-10 23:47:29
Darnah,Libya,32.77,22.64,58.03,67,1,10.49,2020-12-10 23:47:29
Hualmay,Peru,-11.1,-77.61,67.57,82,96,5.88,2020-12-10 23:47:29
Oodweyne,Somalia,9.41,45.06,64.13,27,36,14.09,2020-12-10 23:47:29
Çarşamba,Turkey,41.2,36.72,39.2,86,0,2.24,2020-12-10 23:47:30
Ambon City,Indonesia,-3.7,128.18,86.0,70,40,3.36,2020-12-10 23:47:30
Xingtai,China,37.06,114.49,32.61,81,1,4.32,2020-12-10 23:47:30
Nizwá,Oman,22.93,57.53,57.27,77,6,3.91,2020-12-10 23:47:30
Chicama,Peru,-7.84,-79.15,66.2,82,75,10.29,2020-12-10 23:47:30
Itapirapuã,Brazil,-15.82,-50.61,75.25,74,100,3.02,2020-12-10 23:47:31
Palmer,United States,42.16,-72.33,33.8,69,20,4.0,2020-12-10 23:47:31
Dakoro,Niger,14.51,6.76,74.28,19,47,8.86,2020-12-10 23:47:31
Mackay,Australia,-21.15,149.2,84.2,48,61,13.87,2020-12-10 23:47:31
Vikevåg,Norway,59.1,5.7,44.01,64,75,13.87,2020-12-10 23:47:31
Beroroha,Madagascar,-21.67,45.17,75.36,80,62,3.94,2020-12-10 23:47:32
Nishihara,Japan,26.18,127.76,71.6,83,40,5.82,2020-12-10 23:47:32
Chute-aux-Outardes,Canada,49.12,-68.4,26.6,73,90,6.93,2020-12-10 23:47:32
Chumikan,Russia,54.72,135.31,6.48,92,100,2.57,2020-12-10 23:47:32
Māngrol,India,21.12,70.12,74.77,75,56,3.94,2020-12-10 23:42:39
Khorramabad,Iran,33.49,48.36,42.28,66,0,1.07,2020-12-10 23:47:33
Camacha,Portugal,33.08,-16.33,62.6,77,40,9.17,2020-12-10 23:47:33
Bilibino,Russia,68.05,166.44,-2.96,85,100,3.87,2020-12-10 23:47:33
Kieta,Papua New Guinea,-6.22,155.63,86.4,60,26,1.95,2020-12-10 23:47:33
Sørland,Norway,67.67,12.69,41.0,75,20,8.05,2020-12-10 23:47:33
Gorontalo,Indonesia,0.54,123.06,84.11,71,45,0.63,2020-12-10 23:47:33
Verkhoyansk,Russia,67.54,133.38,-39.73,74,60,0.56,2020-12-10 23:47:34
Nuuk,Greenland,64.18,-51.72,21.2,73,40,8.05,2020-12-10 23:47:34
Atasū,Kazakhstan,48.68,71.64,1.42,93,41,7.96,2020-12-10 23:47:34
Praia,Cabo Verde,14.92,-23.51,73.4,64,75,16.11,2020-12-10 23:45:15
Jiuquan,China,39.74,98.52,21.4,86,100,0.92,2020-12-10 23:47:34
Dudinka,Russia,69.41,86.18,-25.6,67,0,2.24,2020-12-10 23:47:34
Dargaville,New Zealand,-35.93,173.88,67.98,63,100,9.84,2020-12-10 23:47:35
Rathdrum,United States,47.81,-116.89,37.99,95,1,12.75,2020-12-10 23:47:35
Jaltenango,Mexico,15.87,-92.72,67.8,79,27,0.98,2020-12-10 23:47:35
Nushki,Pakistan,29.55,66.02,48.52,49,10,4.36,2020-12-10 23:47:35
Karpathos,Greece,35.51,27.21,60.8,72,50,17.22,2020-12-10 23:47:36
Townsville,Australia,-19.25,146.8,84.2,58,75,13.87,2020-12-10 23:47:36
Sesheke,Zambia,-17.48,24.3,68.5,88,100,6.35,2020-12-10 23:43:15
Mlyniv,Ukraine,50.51,25.62,35.01,98,100,11.52,2020-12-10 23:47:36
Cururupu,Brazil,-1.83,-44.87,76.24,84,75,3.96,2020-12-10 23:47:36
Vila,Portugal,42.03,-8.16,55.99,96,100,15.01,2020-12-10 23:46:31
Ulladulla,Australia,-35.35,150.47,64.4,42,75,16.11,2020-12-10 23:47:37
Shenzhen,China,22.55,114.07,71.01,93,58,3.96,2020-12-10 23:47:37
White,United States,35.25,-91.73,60.8,48,1,8.05,2020-12-10 23:47:29
Imbituba,Brazil,-28.24,-48.67,75.2,78,75,6.93,2020-12-10 23:47:37
Berlevåg,Norway,70.86,29.09,35.17,87,94,11.61,2020-12-10 23:47:37
San,Mali,13.3,-4.9,75.13,20,0,10.74,2020-12-10 23:47:37
Toma,Burkina Faso,12.77,-2.88,76.15,19,16,6.62,2020-12-10 23:47:37
Rio,Greece,38.3,21.78,48.2,87,40,4.16,2020-12-10 23:47:38
San,Mali,13.3,-4.9,75.13,20,0,10.74,2020-12-10 23:47:37
Tazovsky,Russia,67.47,78.7,-21.69,87,13,6.82,2020-12-10 23:47:38
Flinders,Australia,-34.58,150.86,64.4,42,75,16.11,2020-12-10 23:47:38
Labuhan,Indonesia,-6.88,112.21,81.72,79,100,7.63,2020-12-10 23:47:38
Sanming,China,26.25,117.62,58.24,74,81,0.49,2020-12-10 23:47:38
Lewisporte,Canada,49.25,-55.05,32.0,94,90,2.24,2020-12-10 23:47:38
Miyako,Japan,39.64,141.95,45.86,61,0,2.51,2020-12-10 23:47:39
Laiyang,China,36.98,120.71,34.0,89,48,3.65,2020-12-10 23:45:06
Axum,Ethiopia,14.12,38.72,49.51,83,17,3.58,2020-12-10 23:47:39
Palestine,Palestine,31.92,35.2,57.99,66,0,4.7,2020-12-10 23:47:39
Balikpapan,Indonesia,-1.27,116.83,77.0,83,75,10.29,2020-12-10 23:44:04
Baoqing,China,46.33,132.21,10.54,93,0,4.99,2020-12-10 23:47:39
Kerema,Papua New Guinea,-7.96,145.78,82.22,77,27,10.07,2020-12-10 23:47:40
Lorengau,Papua New Guinea,-2.02,147.27,85.15,69,96,7.05,2020-12-10 23:47:40
Jurm,Afghanistan,36.86,70.83,27.82,63,98,4.61,2020-12-10 23:47:40
Gautier,United States,30.39,-88.61,62.6,82,1,3.89,2020-12-10 23:47:40
Kangaatsiaq,Greenland,68.31,-53.46,16.79,91,99,10.2,2020-12-10 23:47:40
Cassilândia,Brazil,-19.11,-51.73,75.49,69,94,4.43,2020-12-10 23:47:40
Jaora,India,23.63,75.13,69.17,64,94,2.57,2020-12-10 23:47:41
Altamont,United States,42.21,-121.74,44.6,36,75,12.75,2020-12-10 23:47:41
